{"type":"FeatureCollection","features":[{"id":"0","type":"Feature","properties":{"OBJECTID":1,"DEPOSIT_NAME":"CLAUDE HILLS NORTH","DEPOSIT_COMMODITIES":"Nickel, Cobalt","SIZE_TYPE_VALUE":"Low Significance"},"geometry":{"type":"Point","coordinates":[129.203758,-26.004503]}},{"id":"1","type":"Feature","properties":{"OBJECTID":2,"DEPOSIT_NAME":"CLAUDE HILLS","DEPOSIT_COMMODITIES":"Nickel, Cobalt, Iron, Ochre","SIZE_TYPE_VALUE":"Locally Significant"},"geometry":{"type":"Point","coordinates":[129.17561,-26.010978]}},{"id":"3","type":"Feature","properties":{"OBJECTID":4,"DEPOSIT_NAME":"WANKA WANKA","DEPOSIT_COMMODITIES":"Nickel, Cobalt, Copper","SIZE_TYPE_VALUE":"Low Significance"},"geometry":{"type":"Point","coordinates":[132.761314,-26.778466]}},{"id":"4","type":"Feature","properties":{"OBJECTID":5,"DEPOSIT_NAME":"YERILA","DEPOSIT_COMMODITIES":"Cobalt, Rare Earths, Thorium, Uranium","SIZE_TYPE_VALUE":"Low Significance"},"geometry":{"type":"Point","coordinates":[139.538115,-29.882279]}},{"id":"5","type":"Feature","properties":{"OBJECTID":6,"DEPOSIT_NAME":"JANET FAR EAST","DEPOSIT_COMMODITIES":"Copper, Cobalt","SIZE_TYPE_VALUE":"Low Significance"},"geometry":{"type":"Point","coordinates":[139.302293,-29.834447]}},{"id":"6","type":"Feature","properties":{"OBJECTID":7,"DEPOSIT_NAME":"GUNSIGHT","DEPOSIT_COMMODITIES":"Copper, Cobalt, Rare Earths, Uranium","SIZE_TYPE_VALUE":"Locally Significant"},"geometry":{"type":"Point","coordinates":[139.647472,-30.003818]}},{"id":"7","type":"Feature","properties":{"OBJECTID":8,"DEPOSIT_NAME":"GRAND JUNCTION","DEPOSIT_COMMODITIES":"Copper, Gold, Cobalt","SIZE_TYPE_VALUE":"Low Significance"},"geometry":{"type":"Point","coordinates":[139.354626,-30.152801]}},{"id":"8","type":"Feature","properties":{"OBJECTID":9,"DEPOSIT_NAME":"O'DONOGHUES CASTLE","DEPOSIT_COMMODITIES":"Copper, Silver, Gold, Cobalt","SIZE_TYPE_VALUE":"Low Significance"},"geometry":{"type":"Point","coordinates":[139.317136,-30.416208]}},{"id":"9","type":"Feature","properties":{"OBJECTID":10,"DEPOSIT_NAME":"MOUNTAIN OF LIGHT","DEPOSIT_COMMODITIES":"Copper, Cobalt","SIZE_TYPE_VALUE":"Locally Significant"},"geometry":{"type":"Point","coordinates":[138.45096,-30.574778]}},{"id":"10","type":"Feature","properties":{"OBJECTID":11,"DEPOSIT_NAME":"PALTRIDGE NO.1","DEPOSIT_COMMODITIES":"Copper, Cobalt","SIZE_TYPE_VALUE":"Low Significance"},"geometry":{"type":"Point","coordinates":[138.453536,-30.575938]}},{"id":"11","type":"Feature","properties":{"OBJECTID":12,"DEPOSIT_NAME":"COBALT","DEPOSIT_COMMODITIES":"Copper, Cobalt","SIZE_TYPE_VALUE":"Low Significance"},"geometry":{"type":"Point","coordinates":[138.673569,-31.132698]}},{"id":"12","type":"Feature","properties":{"OBJECTID":13,"DEPOSIT_NAME":"YOUNGS","DEPOSIT_COMMODITIES":"Cobalt, Silver, Copper, Nickel","SIZE_TYPE_VALUE":"Low Significance"},"geometry":{"type":"Point","coordinates":[138.675597,-31.121108]}},{"id":"13","type":"Feature","properties":{"OBJECTID":14,"DEPOSIT_NAME":"BLACK EAGLE","DEPOSIT_COMMODITIES":"Copper, Silver, Cobalt, Lead","SIZE_TYPE_VALUE":"Locally Significant"},"geometry":{"type":"Point","coordinates":[138.125715,-30.811201]}},{"id":"14","type":"Feature","properties":{"OBJECTID":15,"DEPOSIT_NAME":"JACK DAM","DEPOSIT_COMMODITIES":"Copper, Gold, Cobalt","SIZE_TYPE_VALUE":"Low Significance"},"geometry":{"type":"Point","coordinates":[140.579198,-31.345055]}},{"id":"15","type":"Feature","properties":{"OBJECTID":16,"DEPOSIT_NAME":"BOOMERANG","DEPOSIT_COMMODITIES":"Gold, Silver, Cobalt","SIZE_TYPE_VALUE":"Locally Significant"},"geometry":{"type":"Point","coordinates":[134.473666,-30.766729]}},{"id":"16","type":"Feature","properties":{"OBJECTID":17,"DEPOSIT_NAME":"EMMIE BLUFF","DEPOSIT_COMMODITIES":"Copper, Silver, Cobalt, Zinc","SIZE_TYPE_VALUE":"Locally Significant"},"geometry":{"type":"Point","coordinates":[137.15442,-31.105122]}},{"id":"17","type":"Feature","properties":{"OBJECTID":18,"DEPOSIT_NAME":"SAHARA","DEPOSIT_COMMODITIES":"Copper, Nickel, Cobalt, Palladium, Platinum","SIZE_TYPE_VALUE":""},"geometry":{"type":"Point","coordinates":[132.965038,-30.687035]}},{"id":"18","type":"Feature","properties":{"OBJECTID":19,"DEPOSIT_NAME":"SAHARA","DEPOSIT_COMMODITIES":"Copper, Nickel, Cobalt, Palladium, Platinum","SIZE_TYPE_VALUE":""},"geometry":{"type":"Point","coordinates":[132.965038,-30.687035]}},{"id":"19","type":"Feature","properties":{"OBJECTID":20,"DEPOSIT_NAME":"WINDABOUT","DEPOSIT_COMMODITIES":"Copper, Silver, Cobalt, Zinc","SIZE_TYPE_VALUE":"Locally Significant"},"geometry":{"type":"Point","coordinates":[137.133288,-31.389356]}},{"id":"20","type":"Feature","properties":{"OBJECTID":21,"DEPOSIT_NAME":"VIPER","DEPOSIT_COMMODITIES":"Copper, Cobalt","SIZE_TYPE_VALUE":"Low Significance"},"geometry":{"type":"Point","coordinates":[140.979507,-32.116087]}},{"id":"21","type":"Feature","properties":{"OBJECTID":22,"DEPOSIT_NAME":"KALOOLA","DEPOSIT_COMMODITIES":"Cobalt","SIZE_TYPE_VALUE":"Low Significance"},"geometry":{"type":"Point","coordinates":[140.181404,-31.93416]}},{"id":"22","type":"Feature","properties":{"OBJECTID":23,"DEPOSIT_NAME":"BARATTA","DEPOSIT_COMMODITIES":"Copper, Cobalt","SIZE_TYPE_VALUE":"Low Significance"},"geometry":{"type":"Point","coordinates":[139.130311,-31.818008]}},{"id":"23","type":"Feature","properties":{"OBJECTID":24,"DEPOSIT_NAME":"BOTTLE DUMP","DEPOSIT_COMMODITIES":"Copper, Cobalt","SIZE_TYPE_VALUE":"Low Significance"},"geometry":{"type":"Point","coordinates":[138.660135,-31.820712]}},{"id":"24","type":"Feature","properties":{"OBJECTID":25,"DEPOSIT_NAME":"ETHIUDNA PIPERS","DEPOSIT_COMMODITIES":"Copper, Cobalt, Nickel, Wollastonite","SIZE_TYPE_VALUE":"Low Significance"},"geometry":{"type":"Point","coordinates":[139.838044,-32.05362]}},{"id":"25","type":"Feature","properties":{"OBJECTID":26,"DEPOSIT_NAME":"ETHIUDNA NO.1","DEPOSIT_COMMODITIES":"Copper, Cobalt","SIZE_TYPE_VALUE":"Low Significance"},"geometry":{"type":"Point","coordinates":[139.854929,-32.054592]}},{"id":"26","type":"Feature","properties":{"OBJECTID":27,"DEPOSIT_NAME":"MOSLEYS","DEPOSIT_COMMODITIES":"Copper, Gold, Cobalt","SIZE_TYPE_VALUE":"Low Significance"},"geometry":{"type":"Point","coordinates":[138.671348,-30.938926]}},{"id":"27","type":"Feature","properties":{"OBJECTID":28,"DEPOSIT_NAME":"MG14","DEPOSIT_COMMODITIES":"Copper, Silver, Cobalt, Lead, Zinc","SIZE_TYPE_VALUE":"Locally Significant"},"geometry":{"type":"Point","coordinates":[137.150918,-31.434636]}},{"id":"28","type":"Feature","properties":{"OBJECTID":29,"DEPOSIT_NAME":"KALOOLA HILL","DEPOSIT_COMMODITIES":"Copper, Cobalt","SIZE_TYPE_VALUE":"Low Significance"},"geometry":{"type":"Point","coordinates":[140.108167,-31.939026]}},{"id":"29","type":"Feature","properties":{"OBJECTID":30,"DEPOSIT_NAME":"JESSICA","DEPOSIT_COMMODITIES":"Copper, Cobalt","SIZE_TYPE_VALUE":"Low Significance"},"geometry":{"type":"Point","coordinates":[140.378906,-31.504644]}},{"id":"30","type":"Feature","properties":{"OBJECTID":31,"DEPOSIT_NAME":"MOUNT JOSEPHINE","DEPOSIT_COMMODITIES":"Cobalt","SIZE_TYPE_VALUE":"Low Significance"},"geometry":{"type":"Point","coordinates":[139.161862,-31.442635]}},{"id":"31","type":"Feature","properties":{"OBJECTID":32,"DEPOSIT_NAME":"CATTLEGRID","DEPOSIT_COMMODITIES":"Copper, Silver, Cobalt","SIZE_TYPE_VALUE":"Significant to SA"},"geometry":{"type":"Point","coordinates":[137.147228,-31.443776]}},{"id":"32","type":"Feature","properties":{"OBJECTID":33,"DEPOSIT_NAME":"GULLY","DEPOSIT_COMMODITIES":"Copper, Silver, Cobalt, Zinc","SIZE_TYPE_VALUE":"Locally Significant"},"geometry":{"type":"Point","coordinates":[137.181729,-31.445413]}},{"id":"33","type":"Feature","properties":{"OBJECTID":34,"DEPOSIT_NAME":"COADS","DEPOSIT_COMMODITIES":"Manganese, Cobalt","SIZE_TYPE_VALUE":"Low Significance"},"geometry":{"type":"Point","coordinates":[139.190367,-31.522696]}},{"id":"34","type":"Feature","properties":{"OBJECTID":35,"DEPOSIT_NAME":"MYSTIC","DEPOSIT_COMMODITIES":"Nickel, Cobalt, Copper, Platinoids","SIZE_TYPE_VALUE":"Low Significance"},"geometry":{"type":"Point","coordinates":[132.225985,-31.526093]}},{"id":"35","type":"Feature","properties":{"OBJECTID":36,"DEPOSIT_NAME":"WAUKALOO DAM","DEPOSIT_COMMODITIES":"Cobalt","SIZE_TYPE_VALUE":"Low Significance"},"geometry":{"type":"Point","coordinates":[140.405231,-31.836984]}},{"id":"36","type":"Feature","properties":{"OBJECTID":37,"DEPOSIT_NAME":"BIMBA HILL","DEPOSIT_COMMODITIES":"Copper, Cobalt","SIZE_TYPE_VALUE":"Low Significance"},"geometry":{"type":"Point","coordinates":[140.210529,-31.918973]}},{"id":"37","type":"Feature","properties":{"OBJECTID":38,"DEPOSIT_NAME":"WHITE ROO","DEPOSIT_COMMODITIES":"Copper, Cobalt","SIZE_TYPE_VALUE":"Low Significance"},"geometry":{"type":"Point","coordinates":[140.992071,-31.949143]}},{"id":"38","type":"Feature","properties":{"OBJECTID":39,"DEPOSIT_NAME":"SHORTS DAM","DEPOSIT_COMMODITIES":"Copper, Cobalt","SIZE_TYPE_VALUE":"Low Significance"},"geometry":{"type":"Point","coordinates":[140.584395,-32.04501]}},{"id":"39","type":"Feature","properties":{"OBJECTID":40,"DEPOSIT_NAME":"YUMBARRA","DEPOSIT_COMMODITIES":"Nickel, Cobalt","SIZE_TYPE_VALUE":"Low Significance"},"geometry":{"type":"Point","coordinates":[133.281542,-31.617293]}},{"id":"40","type":"Feature","properties":{"OBJECTID":41,"DEPOSIT_NAME":"DOME ROCK","DEPOSIT_COMMODITIES":"Copper, Gold, Cobalt","SIZE_TYPE_VALUE":"Locally Significant"},"geometry":{"type":"Point","coordinates":[140.460522,-31.901534]}},{"id":"41","type":"Feature","properties":{"OBJECTID":42,"DEPOSIT_NAME":"KALKAROO","DEPOSIT_COMMODITIES":"Copper, Gold, Cobalt, Molybdenum","SIZE_TYPE_VALUE":"Significant to Australia"},"geometry":{"type":"Point","coordinates":[140.533551,-31.725985]}},{"id":"42","type":"Feature","properties":{"OBJECTID":43,"DEPOSIT_NAME":"WIRRAWILKA","DEPOSIT_COMMODITIES":"Copper, Asbestos, Cobalt","SIZE_TYPE_VALUE":"Low Significance"},"geometry":{"type":"Point","coordinates":[138.662079,-31.848345]}},{"id":"43","type":"Feature","properties":{"OBJECTID":44,"DEPOSIT_NAME":"MOUNT HOWDEN","DEPOSIT_COMMODITIES":"Cobalt, Arsenic, Nickel","SIZE_TYPE_VALUE":"Low Significance"},"geometry":{"type":"Point","coordinates":[140.196755,-31.926519]}},{"id":"44","type":"Feature","properties":{"OBJECTID":45,"DEPOSIT_NAME":"KALANBI","DEPOSIT_COMMODITIES":"Cobalt","SIZE_TYPE_VALUE":"Low Significance"},"geometry":{"type":"Point","coordinates":[133.65793,-31.926967]}},{"id":"45","type":"Feature","properties":{"OBJECTID":46,"DEPOSIT_NAME":"ETHIUDNA MAIN SHAFT","DEPOSIT_COMMODITIES":"Copper, Cobalt, Uranium, Wollastonite","SIZE_TYPE_VALUE":"Low Significance"},"geometry":{"type":"Point","coordinates":[139.837629,-32.049789]}},{"id":"46","type":"Feature","properties":{"OBJECTID":47,"DEPOSIT_NAME":"TELECHIE","DEPOSIT_COMMODITIES":"Copper, Cobalt","SIZE_TYPE_VALUE":"Low Significance"},"geometry":{"type":"Point","coordinates":[140.150927,-31.907746]}},{"id":"47","type":"Feature","properties":{"OBJECTID":48,"DEPOSIT_NAME":"TONGA CREEK","DEPOSIT_COMMODITIES":"Copper, Gold, Cobalt","SIZE_TYPE_VALUE":"Low Significance"},"geometry":{"type":"Point","coordinates":[140.122381,-31.90867]}},{"id":"48","type":"Feature","properties":{"OBJECTID":49,"DEPOSIT_NAME":"IRVINE LOOKOUT","DEPOSIT_COMMODITIES":"Manganese, Cobalt","SIZE_TYPE_VALUE":"Low Significance"},"geometry":{"type":"Point","coordinates":[139.215377,-31.450603]}},{"id":"49","type":"Feature","properties":{"OBJECTID":50,"DEPOSIT_NAME":"KANYAKA","DEPOSIT_COMMODITIES":"Copper, Cobalt, Zinc","SIZE_TYPE_VALUE":"Low Significance"},"geometry":{"type":"Point","coordinates":[138.279892,-32.073764]}},{"id":"51","type":"Feature","properties":{"OBJECTID":52,"DEPOSIT_NAME":"NORTH PORTIA","DEPOSIT_COMMODITIES":"Copper, Gold, Cobalt, Molybdenum","SIZE_TYPE_VALUE":"Significant to SA"},"geometry":{"type":"Point","coordinates":[140.452017,-31.427758]}},{"id":"52","type":"Feature","properties":{"OBJECTID":53,"DEPOSIT_NAME":"WEST LAGOON","DEPOSIT_COMMODITIES":"Copper, Silver, Cobalt","SIZE_TYPE_VALUE":"Low Significance"},"geometry":{"type":"Point","coordinates":[137.180652,-31.428318]}},{"id":"53","type":"Feature","properties":{"OBJECTID":54,"DEPOSIT_NAME":"CATTLEGRID SOUTH","DEPOSIT_COMMODITIES":"Copper, Silver, Cobalt","SIZE_TYPE_VALUE":"Locally Significant"},"geometry":{"type":"Point","coordinates":[137.134257,-31.453176]}},{"id":"54","type":"Feature","properties":{"OBJECTID":55,"DEPOSIT_NAME":"COADS HILL SOUTH","DEPOSIT_COMMODITIES":"Manganese, Cobalt","SIZE_TYPE_VALUE":"Low Significance"},"geometry":{"type":"Point","coordinates":[139.181347,-31.455536]}},{"id":"55","type":"Feature","properties":{"OBJECTID":56,"DEPOSIT_NAME":"BULLOO CREEK","DEPOSIT_COMMODITIES":"Cobalt","SIZE_TYPE_VALUE":"Low Significance"},"geometry":{"type":"Point","coordinates":[140.436887,-32.133576]}},{"id":"56","type":"Feature","properties":{"OBJECTID":57,"DEPOSIT_NAME":"MUTTABEE","DEPOSIT_COMMODITIES":"Manganese, Cobalt","SIZE_TYPE_VALUE":"Low Significance"},"geometry":{"type":"Point","coordinates":[138.404396,-32.502153]}},{"id":"57","type":"Feature","properties":{"OBJECTID":58,"DEPOSIT_NAME":"PROUTS","DEPOSIT_COMMODITIES":"Manganese, Cobalt","SIZE_TYPE_VALUE":"Low Significance"},"geometry":{"type":"Point","coordinates":[138.414287,-32.272179]}},{"id":"58","type":"Feature","properties":{"OBJECTID":59,"DEPOSIT_NAME":"MUTOOROO","DEPOSIT_COMMODITIES":"Copper, Gold, Cobalt, Sulphur","SIZE_TYPE_VALUE":"Locally Significant"},"geometry":{"type":"Point","coordinates":[140.93801,-32.249639]}},{"id":"59","type":"Feature","properties":{"OBJECTID":60,"DEPOSIT_NAME":"BIRTHDAY","DEPOSIT_COMMODITIES":"Lead, Cobalt, Zinc","SIZE_TYPE_VALUE":"Low Significance"},"geometry":{"type":"Point","coordinates":[140.957783,-32.190376]}},{"id":"60","type":"Feature","properties":{"OBJECTID":61,"DEPOSIT_NAME":"WILKINS","DEPOSIT_COMMODITIES":"Copper, Gold, Cobalt","SIZE_TYPE_VALUE":"Locally Significant"},"geometry":{"type":"Point","coordinates":[140.547396,-32.201767]}},{"id":"61","type":"Feature","properties":{"OBJECTID":62,"DEPOSIT_NAME":"SCORPION","DEPOSIT_COMMODITIES":"Copper, Gold, Cobalt","SIZE_TYPE_VALUE":"Low Significance"},"geometry":{"type":"Point","coordinates":[140.909593,-32.226526]}},{"id":"62","type":"Feature","properties":{"OBJECTID":63,"DEPOSIT_NAME":"SCORPION EXTENDED","DEPOSIT_COMMODITIES":"Copper, Gold, Cobalt","SIZE_TYPE_VALUE":"Low Significance"},"geometry":{"type":"Point","coordinates":[140.909557,-32.229112]}},{"id":"63","type":"Feature","properties":{"OBJECTID":64,"DEPOSIT_NAME":"RHONDDA","DEPOSIT_COMMODITIES":"Copper, Cobalt","SIZE_TYPE_VALUE":"Low Significance"},"geometry":{"type":"Point","coordinates":[138.552604,-32.377505]}},{"id":"64","type":"Feature","properties":{"OBJECTID":65,"DEPOSIT_NAME":"TAIPAN","DEPOSIT_COMMODITIES":"Cobalt, Copper","SIZE_TYPE_VALUE":"Low Significance"},"geometry":{"type":"Point","coordinates":[140.990707,-32.208687]}},{"id":"65","type":"Feature","properties":{"OBJECTID":66,"DEPOSIT_NAME":"SPRING CREEK","DEPOSIT_COMMODITIES":"Copper, Cobalt","SIZE_TYPE_VALUE":"Low Significance"},"geometry":{"type":"Point","coordinates":[138.127541,-32.731327]}},{"id":"66","type":"Feature","properties":{"OBJECTID":67,"DEPOSIT_NAME":"FRESH WELL","DEPOSIT_COMMODITIES":"Copper, Silver, Cobalt, Lead","SIZE_TYPE_VALUE":"Low Significance"},"geometry":{"type":"Point","coordinates":[137.383527,-32.738479]}},{"id":"67","type":"Feature","properties":{"OBJECTID":68,"DEPOSIT_NAME":"CATFORDS CUT","DEPOSIT_COMMODITIES":"Phosphate, Cobalt","SIZE_TYPE_VALUE":"Locally Significant"},"geometry":{"type":"Point","coordinates":[138.562779,-32.958728]}},{"id":"69","type":"Feature","properties":{"OBJECTID":70,"DEPOSIT_NAME":"ANABAMA","DEPOSIT_COMMODITIES":"Copper, Silver, Gold, Cobalt, Molybdenum, Zinc","SIZE_TYPE_VALUE":"Locally Significant"},"geometry":{"type":"Point","coordinates":[140.287282,-32.786996]}},{"id":"70","type":"Feature","properties":{"OBJECTID":71,"DEPOSIT_NAME":"BIG BEND","DEPOSIT_COMMODITIES":"Cobalt","SIZE_TYPE_VALUE":"Low Significance"},"geometry":{"type":"Point","coordinates":[139.091861,-32.870629]}},{"id":"71","type":"Feature","properties":{"OBJECTID":72,"DEPOSIT_NAME":"1050 EAST","DEPOSIT_COMMODITIES":"Copper, Silver, Cobalt","SIZE_TYPE_VALUE":"Low Significance"},"geometry":{"type":"Point","coordinates":[137.379392,-32.747484]}},{"id":"72","type":"Feature","properties":{"OBJECTID":73,"DEPOSIT_NAME":"WILLOWIE FOREST","DEPOSIT_COMMODITIES":"Manganese, Cobalt","SIZE_TYPE_VALUE":"Low Significance"},"geometry":{"type":"Point","coordinates":[138.135148,-32.778559]}},{"id":"73","type":"Feature","properties":{"OBJECTID":74,"DEPOSIT_NAME":"KETCHOWLA K6","DEPOSIT_COMMODITIES":"Manganese, Cobalt","SIZE_TYPE_VALUE":"Low Significance"},"geometry":{"type":"Point","coordinates":[139.235802,-33.339473]}},{"id":"74","type":"Feature","properties":{"OBJECTID":75,"DEPOSIT_NAME":"POLINGA","DEPOSIT_COMMODITIES":"Manganese, Cobalt","SIZE_TYPE_VALUE":"Low Significance"},"geometry":{"type":"Point","coordinates":[136.296784,-33.395623]}},{"id":"75","type":"Feature","properties":{"OBJECTID":76,"DEPOSIT_NAME":"KETCHOWLA K3","DEPOSIT_COMMODITIES":"Rare Earths, Cobalt, Manganese","SIZE_TYPE_VALUE":"Low Significance"},"geometry":{"type":"Point","coordinates":[139.215033,-33.291045]}},{"id":"76","type":"Feature","properties":{"OBJECTID":77,"DEPOSIT_NAME":"WILLALO","DEPOSIT_COMMODITIES":"Cobalt","SIZE_TYPE_VALUE":"Low Significance"},"geometry":{"type":"Point","coordinates":[138.84937,-33.451864]}},{"id":"77","type":"Feature","properties":{"OBJECTID":78,"DEPOSIT_NAME":"SUGARLOAF","DEPOSIT_COMMODITIES":"Graphite, Cobalt, Copper","SIZE_TYPE_VALUE":"Low Significance"},"geometry":{"type":"Point","coordinates":[136.328704,-33.486844]}},{"id":"78","type":"Feature","properties":{"OBJECTID":79,"DEPOSIT_NAME":"CUDMORES","DEPOSIT_COMMODITIES":"Copper, Cobalt","SIZE_TYPE_VALUE":"Low Significance"},"geometry":{"type":"Point","coordinates":[138.7259,-33.152488]}},{"id":"79","type":"Feature","properties":{"OBJECTID":80,"DEPOSIT_NAME":"MORRISON","DEPOSIT_COMMODITIES":"Manganese, Cobalt, Rare Earths","SIZE_TYPE_VALUE":"Low Significance"},"geometry":{"type":"Point","coordinates":[139.282097,-33.407326]}},{"id":"80","type":"Feature","properties":{"OBJECTID":81,"DEPOSIT_NAME":"CARTARPO","DEPOSIT_COMMODITIES":"Cobalt, Copper","SIZE_TYPE_VALUE":"Low Significance"},"geometry":{"type":"Point","coordinates":[138.814706,-33.519551]}},{"id":"81","type":"Feature","properties":{"OBJECTID":82,"DEPOSIT_NAME":"KETCHOWLA HILL","DEPOSIT_COMMODITIES":"Manganese, Cobalt, Rare Earths","SIZE_TYPE_VALUE":"Low Significance"},"geometry":{"type":"Point","coordinates":[139.195488,-33.30727]}},{"id":"82","type":"Feature","properties":{"OBJECTID":83,"DEPOSIT_NAME":"KETCHOWLA K8","DEPOSIT_COMMODITIES":"Manganese, Cobalt","SIZE_TYPE_VALUE":"Low Significance"},"geometry":{"type":"Point","coordinates":[139.25978,-33.366072]}},{"id":"83","type":"Feature","properties":{"OBJECTID":84,"DEPOSIT_NAME":"THREE MILE DAM","DEPOSIT_COMMODITIES":"Silver, Cobalt","SIZE_TYPE_VALUE":"Low Significance"},"geometry":{"type":"Point","coordinates":[139.642771,-33.422644]}},{"id":"84","type":"Feature","properties":{"OBJECTID":85,"DEPOSIT_NAME":"KETCHOWLA K2","DEPOSIT_COMMODITIES":"Manganese, Cobalt, Rare Earths","SIZE_TYPE_VALUE":"Low Significance"},"geometry":{"type":"Point","coordinates":[139.270071,-33.309796]}},{"id":"85","type":"Feature","properties":{"OBJECTID":86,"DEPOSIT_NAME":"YARCOWIE","DEPOSIT_COMMODITIES":"Cobalt","SIZE_TYPE_VALUE":"Low Significance"},"geometry":{"type":"Point","coordinates":[138.891349,-33.27853]}},{"id":"86","type":"Feature","properties":{"OBJECTID":87,"DEPOSIT_NAME":"CAMPOONA SYNCLINE","DEPOSIT_COMMODITIES":"Zinc, Cobalt, Nickel, Lead","SIZE_TYPE_VALUE":"Low Significance"},"geometry":{"type":"Point","coordinates":[136.345957,-33.524056]}},{"id":"87","type":"Feature","properties":{"OBJECTID":88,"DEPOSIT_NAME":"WILLAMULKA","DEPOSIT_COMMODITIES":"Copper, Gold, Cobalt","SIZE_TYPE_VALUE":"Low Significance"},"geometry":{"type":"Point","coordinates":[137.863542,-33.913863]}},{"id":"88","type":"Feature","properties":{"OBJECTID":89,"DEPOSIT_NAME":"PRINCESS ROYAL","DEPOSIT_COMMODITIES":"Copper, Gold, Cobalt","SIZE_TYPE_VALUE":"Locally Significant"},"geometry":{"type":"Point","coordinates":[139.007657,-33.770419]}},{"id":"89","type":"Feature","properties":{"OBJECTID":90,"DEPOSIT_NAME":"ALFORD WEST","DEPOSIT_COMMODITIES":"Copper, Gold, Cobalt, Molybdenum","SIZE_TYPE_VALUE":"Locally Significant"},"geometry":{"type":"Point","coordinates":[137.72425,-33.879161]}},{"id":"90","type":"Feature","properties":{"OBJECTID":91,"DEPOSIT_NAME":"TARRAWATTA","DEPOSIT_COMMODITIES":"Gold, Cobalt, Copper","SIZE_TYPE_VALUE":"Low Significance"},"geometry":{"type":"Point","coordinates":[139.090701,-34.53681]}},{"id":"91","type":"Feature","properties":{"OBJECTID":92,"DEPOSIT_NAME":"BARREN HILL","DEPOSIT_COMMODITIES":"Cobalt, Copper","SIZE_TYPE_VALUE":"Low Significance"},"geometry":{"type":"Point","coordinates":[139.124437,-34.556141]}},{"id":"92","type":"Feature","properties":{"OBJECTID":93,"DEPOSIT_NAME":"MOUNT LILY","DEPOSIT_COMMODITIES":"Lead, Silver, Gold, Cobalt, Copper","SIZE_TYPE_VALUE":"Low Significance"},"geometry":{"type":"Point","coordinates":[138.744015,-34.884695]}},{"id":"93","type":"Feature","properties":{"OBJECTID":94,"DEPOSIT_NAME":"MONTACUTE","DEPOSIT_COMMODITIES":"Copper, Silver, Gold, Cobalt, Nickel","SIZE_TYPE_VALUE":"Low Significance"},"geometry":{"type":"Point","coordinates":[138.76352,-34.88493]}}]}