{"type": "FeatureCollection", "features": [{"id": "0", "type": "Feature", "properties": {"OBJECTID": 1, "DEPOSIT_NAME": "UMBUM CREEK NO.1", "DEPOSIT_COMMODITIES": "Dolomite, Magnesium", "SIZE_TYPE_VALUE": "Low Significance"}, "geometry": {"type": "Point", "coordinates": [136.79814, -28.128857]}}, {"id": "1", "type": "Feature", "properties": {"OBJECTID": 2, "DEPOSIT_NAME": "BABBAGE", "DEPOSIT_COMMODITIES": "Dolomite, Magnesium", "SIZE_TYPE_VALUE": "Locally Significant"}, "geometry": {"type": "Point", "coordinates": [137.243286, -28.929468]}}, {"id": "2", "type": "Feature", "properties": {"OBJECTID": 3, "DEPOSIT_NAME": "DAVENPORT CREEK", "DEPOSIT_COMMODITIES": "Dolomite, Magnesium", "SIZE_TYPE_VALUE": "Locally Significant"}, "geometry": {"type": "Point", "coordinates": [137.481438, -29.54134]}}, {"id": "3", "type": "Feature", "properties": {"OBJECTID": 4, "DEPOSIT_NAME": "SCREECHOWL CREEK", "DEPOSIT_COMMODITIES": "Magnesite, Magnesium Oxide", "SIZE_TYPE_VALUE": "Locally Significant"}, "geometry": {"type": "Point", "coordinates": [137.659805, -29.894144]}}, {"id": "4", "type": "Feature", "properties": {"OBJECTID": 5, "DEPOSIT_NAME": "WEST MOUNT HUT", "DEPOSIT_COMMODITIES": "Magnesium Oxide", "SIZE_TYPE_VALUE": "Low Significance"}, "geometry": {"type": "Point", "coordinates": [137.776308, -30.008086]}}, {"id": "5", "type": "Feature", "properties": {"OBJECTID": 6, "DEPOSIT_NAME": "WITCHELINA", "DEPOSIT_COMMODITIES": "Magnesite, Magnesium Oxide", "SIZE_TYPE_VALUE": "Locally Significant"}, "geometry": {"type": "Point", "coordinates": [137.990488, -30.117569]}}, {"id": "6", "type": "Feature", "properties": {"OBJECTID": 7, "DEPOSIT_NAME": "TERMINATION HILL", "DEPOSIT_COMMODITIES": "Magnesite, Magnesium Oxide", "SIZE_TYPE_VALUE": "Locally Significant"}, "geometry": {"type": "Point", "coordinates": [138.024154, -30.224588]}}, {"id": "7", "type": "Feature", "properties": {"OBJECTID": 8, "DEPOSIT_NAME": "PUG HILL", "DEPOSIT_COMMODITIES": "Magnesite, Magnesium Oxide", "SIZE_TYPE_VALUE": "Locally Significant"}, "geometry": {"type": "Point", "coordinates": [138.11358, -30.30938]}}, {"id": "8", "type": "Feature", "properties": {"OBJECTID": 9, "DEPOSIT_NAME": "MOUNT HUTTON CENTRAL", "DEPOSIT_COMMODITIES": "Magnesite, Dolomite, Magnesium Oxide", "SIZE_TYPE_VALUE": "Locally Significant"}, "geometry": {"type": "Point", "coordinates": [138.258127, -30.448588]}}, {"id": "9", "type": "Feature", "properties": {"OBJECTID": 10, "DEPOSIT_NAME": "MOUNT PLAYFAIR", "DEPOSIT_COMMODITIES": "Magnesite, Magnesium Oxide", "SIZE_TYPE_VALUE": "Locally Significant"}, "geometry": {"type": "Point", "coordinates": [138.212376, -30.398035]}}, {"id": "10", "type": "Feature", "properties": {"OBJECTID": 11, "DEPOSIT_NAME": "CAMEL FLAT", "DEPOSIT_COMMODITIES": "Magnesite, Magnesium Oxide", "SIZE_TYPE_VALUE": "Locally Significant"}, "geometry": {"type": "Point", "coordinates": [138.370294, -30.564926]}}, {"id": "11", "type": "Feature", "properties": {"OBJECTID": 12, "DEPOSIT_NAME": "CAMEL FLAT", "DEPOSIT_COMMODITIES": "Magnesite, Magnesium Oxide", "SIZE_TYPE_VALUE": "Locally Significant"}, "geometry": {"type": "Point", "coordinates": [138.370294, -30.564926]}}, {"id": "12", "type": "Feature", "properties": {"OBJECTID": 13, "DEPOSIT_NAME": "MOUNT HUTTON SOUTH", "DEPOSIT_COMMODITIES": "Magnesite, Magnesium Oxide", "SIZE_TYPE_VALUE": "Locally Significant"}, "geometry": {"type": "Point", "coordinates": [138.288752, -30.477909]}}], "crs": {"type": "name", "properties": {"name": "urn:ogc:def:crs:EPSG::7844"}}}