{"type": "FeatureCollection", "features": [{"id": "0", "type": "Feature", "properties": {"OBJECTID": 1, "DEPOSIT_NAME": "VICTORY DOWNS", "DEPOSIT_COMMODITIES": "Rare Earths, Heavy Minerals", "SIZE_TYPE_VALUE": "Low Significance"}, "geometry": {"type": "Point", "coordinates": [133.008773, -26.019552]}}, {"id": "1", "type": "Feature", "properties": {"OBJECTID": 3, "DEPOSIT_NAME": "MICA PASS", "DEPOSIT_COMMODITIES": "Rare Earths", "SIZE_TYPE_VALUE": "Low Significance"}, "geometry": {"type": "Point", "coordinates": [132.464608, -26.079286]}}, {"id": "2", "type": "Feature", "properties": {"OBJECTID": 4, "DEPOSIT_NAME": "MOUNT HARDY", "DEPOSIT_COMMODITIES": "Rare Earths, Mica", "SIZE_TYPE_VALUE": "Low Significance"}, "geometry": {"type": "Point", "coordinates": [129.878092, -26.300611]}}, {"id": "3", "type": "Feature", "properties": {"OBJECTID": 5, "DEPOSIT_NAME": "COWARIE", "DEPOSIT_COMMODITIES": "Rare Earths", "SIZE_TYPE_VALUE": "Low Significance"}, "geometry": {"type": "Point", "coordinates": [138.28777, -27.60819]}}, {"id": "4", "type": "Feature", "properties": {"OBJECTID": 6, "DEPOSIT_NAME": "VICTORY", "DEPOSIT_COMMODITIES": "Uranium, Copper, Rare Earths", "SIZE_TYPE_VALUE": "Low Significance"}, "geometry": {"type": "Point", "coordinates": [135.981608, -28.530886]}}, {"id": "5", "type": "Feature", "properties": {"OBJECTID": 7, "DEPOSIT_NAME": "CADI", "DEPOSIT_COMMODITIES": "Copper, Lead, Rare Earths, Zinc", "SIZE_TYPE_VALUE": "Low Significance"}, "geometry": {"type": "Point", "coordinates": [135.360381, -28.912352]}}, {"id": "6", "type": "Feature", "properties": {"OBJECTID": 8, "DEPOSIT_NAME": "PEPPERCORN", "DEPOSIT_COMMODITIES": "Thorium, Rare Earths", "SIZE_TYPE_VALUE": "Low Significance"}, "geometry": {"type": "Point", "coordinates": [134.898489, -29.188537]}}, {"id": "7", "type": "Feature", "properties": {"OBJECTID": 9, "DEPOSIT_NAME": "PECULIAR KNOB NORTH", "DEPOSIT_COMMODITIES": "Copper, Rare Earths", "SIZE_TYPE_VALUE": "Low Significance"}, "geometry": {"type": "Point", "coordinates": [135.39089, -29.565409]}}, {"id": "8", "type": "Feature", "properties": {"OBJECTID": 10, "DEPOSIT_NAME": "PECULIAR KNOB", "DEPOSIT_COMMODITIES": "Iron, Rare Earths", "SIZE_TYPE_VALUE": "Locally Significant"}, "geometry": {"type": "Point", "coordinates": [135.382682, -29.589674]}}, {"id": "9", "type": "Feature", "properties": {"OBJECTID": 11, "DEPOSIT_NAME": "YERILA", "DEPOSIT_COMMODITIES": "Cobalt, Rare Earths, Thorium, Uranium", "SIZE_TYPE_VALUE": "Low Significance"}, "geometry": {"type": "Point", "coordinates": [139.538115, -29.882279]}}, {"id": "10", "type": "Feature", "properties": {"OBJECTID": 12, "DEPOSIT_NAME": "YERILA EAST", "DEPOSIT_COMMODITIES": "Rare Earths", "SIZE_TYPE_VALUE": "Low Significance"}, "geometry": {"type": "Point", "coordinates": [139.573717, -29.903261]}}, {"id": "11", "type": "Feature", "properties": {"OBJECTID": 13, "DEPOSIT_NAME": "MOOLAWATANA", "DEPOSIT_COMMODITIES": "Copper, Rare Earths", "SIZE_TYPE_VALUE": "Low Significance"}, "geometry": {"type": "Point", "coordinates": [139.700825, -29.943086]}}, {"id": "12", "type": "Feature", "properties": {"OBJECTID": 14, "DEPOSIT_NAME": "GUNSIGHT", "DEPOSIT_COMMODITIES": "Copper, Cobalt, Rare Earths, Uranium", "SIZE_TYPE_VALUE": "Locally Significant"}, "geometry": {"type": "Point", "coordinates": [139.647472, -30.003818]}}, {"id": "13", "type": "Feature", "properties": {"OBJECTID": 15, "DEPOSIT_NAME": "MUCKANIPPIE EAST", "DEPOSIT_COMMODITIES": "Rare Earths, Phosphate", "SIZE_TYPE_VALUE": "Low Significance"}, "geometry": {"type": "Point", "coordinates": [134.19158, -30.130561]}}, {"id": "14", "type": "Feature", "properties": {"OBJECTID": 16, "DEPOSIT_NAME": "FOUR MILE CREEK", "DEPOSIT_COMMODITIES": "Rare Earths", "SIZE_TYPE_VALUE": "Low Significance"}, "geometry": {"type": "Point", "coordinates": [139.462249, -30.135639]}}, {"id": "15", "type": "Feature", "properties": {"OBJECTID": 17, "DEPOSIT_NAME": "ARMCHAIR", "DEPOSIT_COMMODITIES": "Uranium, Copper, Rare Earths, Uranium Oxide", "SIZE_TYPE_VALUE": "Low Significance"}, "geometry": {"type": "Point", "coordinates": [139.362822, -30.203929]}}, {"id": "16", "type": "Feature", "properties": {"OBJECTID": 18, "DEPOSIT_NAME": "MOUNT GEE EAST", "DEPOSIT_COMMODITIES": "Uranium, Rare Earths", "SIZE_TYPE_VALUE": "Low Significance"}, "geometry": {"type": "Point", "coordinates": [139.348567, -30.223716]}}, {"id": "17", "type": "Feature", "properties": {"OBJECTID": 19, "DEPOSIT_NAME": "OLYMPIC DAM", "DEPOSIT_COMMODITIES": "Copper, Silver, Gold, Iron, Rare Earths, Uranium, Uranium Oxide", "SIZE_TYPE_VALUE": "World-wide Significance"}, "geometry": {"type": "Point", "coordinates": [136.88937, -30.440326]}}, {"id": "18", "type": "Feature", "properties": {"OBJECTID": 20, "DEPOSIT_NAME": "OLYMPIC DAM", "DEPOSIT_COMMODITIES": "Copper, Silver, Gold, Iron, Rare Earths, Uranium, Uranium Oxide", "SIZE_TYPE_VALUE": "World-wide Significance"}, "geometry": {"type": "Point", "coordinates": [136.88937, -30.440326]}}, {"id": "19", "type": "Feature", "properties": {"OBJECTID": 21, "DEPOSIT_NAME": "OLYMPIC DAM", "DEPOSIT_COMMODITIES": "Copper, Silver, Gold, Iron, Rare Earths, Uranium, Uranium Oxide", "SIZE_TYPE_VALUE": "World-wide Significance"}, "geometry": {"type": "Point", "coordinates": [136.88937, -30.440326]}}, {"id": "20", "type": "Feature", "properties": {"OBJECTID": 22, "DEPOSIT_NAME": "OLYMPIC DAM", "DEPOSIT_COMMODITIES": "Copper, Silver, Gold, Iron, Rare Earths, Uranium, Uranium Oxide", "SIZE_TYPE_VALUE": "World-wide Significance"}, "geometry": {"type": "Point", "coordinates": [136.88937, -30.440326]}}, {"id": "21", "type": "Feature", "properties": {"OBJECTID": 23, "DEPOSIT_NAME": "WINJABBIE", "DEPOSIT_COMMODITIES": "Copper, Rare Earths", "SIZE_TYPE_VALUE": "Low Significance"}, "geometry": {"type": "Point", "coordinates": [136.965749, -31.065742]}}, {"id": "22", "type": "Feature", "properties": {"OBJECTID": 24, "DEPOSIT_NAME": "FREMANTLE DOCTOR", "DEPOSIT_COMMODITIES": "Copper, Silver, Gold, Rare Earths", "SIZE_TYPE_VALUE": "Significant to SA"}, "geometry": {"type": "Point", "coordinates": [137.519003, -31.204482]}}, {"id": "23", "type": "Feature", "properties": {"OBJECTID": 25, "DEPOSIT_NAME": "CARRAPATEENA", "DEPOSIT_COMMODITIES": "Copper, Silver, Gold, Rare Earths, Uranium, Uranium Oxide", "SIZE_TYPE_VALUE": "Significant to SA"}, "geometry": {"type": "Point", "coordinates": [137.49631, -31.219355]}}, {"id": "24", "type": "Feature", "properties": {"OBJECTID": 26, "DEPOSIT_NAME": "OAK DAM EAST", "DEPOSIT_COMMODITIES": "Copper, Iron, Rare Earths, Uranium, Uranium Oxide", "SIZE_TYPE_VALUE": "Locally Significant"}, "geometry": {"type": "Point", "coordinates": [137.249127, -30.982457]}}, {"id": "25", "type": "Feature", "properties": {"OBJECTID": 27, "DEPOSIT_NAME": "KALKAROO WEST", "DEPOSIT_COMMODITIES": "Copper, Gold, Rare Earths, Uranium", "SIZE_TYPE_VALUE": "Low Significance"}, "geometry": {"type": "Point", "coordinates": [140.48265, -31.749156]}}, {"id": "26", "type": "Feature", "properties": {"OBJECTID": 28, "DEPOSIT_NAME": "MOUNT VICTORIA", "DEPOSIT_COMMODITIES": "Uranium, Rare Earths, Uranium Oxide", "SIZE_TYPE_VALUE": "Locally Significant"}, "geometry": {"type": "Point", "coordinates": [139.844685, -31.936308]}}, {"id": "27", "type": "Feature", "properties": {"OBJECTID": 29, "DEPOSIT_NAME": "BOOLCOOMATA GK1", "DEPOSIT_COMMODITIES": "Thorium, Rare Earths, Rutile, Uranium", "SIZE_TYPE_VALUE": "Locally Significant"}, "geometry": {"type": "Point", "coordinates": [140.239244, -31.87036]}}, {"id": "28", "type": "Feature", "properties": {"OBJECTID": 30, "DEPOSIT_NAME": "RADFORD CREEK NORTH", "DEPOSIT_COMMODITIES": "Copper, Rare Earths, Uranium", "SIZE_TYPE_VALUE": "Low Significance"}, "geometry": {"type": "Point", "coordinates": [138.215008, -32.036396]}}, {"id": "29", "type": "Feature", "properties": {"OBJECTID": 31, "DEPOSIT_NAME": "DOUBLE DAM", "DEPOSIT_COMMODITIES": "Uranium, Rare Earths", "SIZE_TYPE_VALUE": "Low Significance"}, "geometry": {"type": "Point", "coordinates": [140.612439, -32.090408]}}, {"id": "30", "type": "Feature", "properties": {"OBJECTID": 32, "DEPOSIT_NAME": "BECAROO", "DEPOSIT_COMMODITIES": "Uranium, Rare Earths", "SIZE_TYPE_VALUE": "Low Significance"}, "geometry": {"type": "Point", "coordinates": [139.90384, -31.948019]}}, {"id": "31", "type": "Feature", "properties": {"OBJECTID": 33, "DEPOSIT_NAME": "ACROPOLIS", "DEPOSIT_COMMODITIES": "Copper, Gold, Iron, Rare Earths, Uranium", "SIZE_TYPE_VALUE": "Locally Significant"}, "geometry": {"type": "Point", "coordinates": [136.748591, -30.620685]}}, {"id": "32", "type": "Feature", "properties": {"OBJECTID": 34, "DEPOSIT_NAME": "CAMELS HUMP", "DEPOSIT_COMMODITIES": "Thorium, Rare Earths", "SIZE_TYPE_VALUE": "Low Significance"}, "geometry": {"type": "Point", "coordinates": [139.818443, -31.998763]}}, {"id": "33", "type": "Feature", "properties": {"OBJECTID": 35, "DEPOSIT_NAME": "RADIUM HILL", "DEPOSIT_COMMODITIES": "Uranium, Mica, Rare Earths, Radium, Uranium Oxide", "SIZE_TYPE_VALUE": "Locally Significant"}, "geometry": {"type": "Point", "coordinates": [140.638006, -32.34597]}}, {"id": "34", "type": "Feature", "properties": {"OBJECTID": 36, "DEPOSIT_NAME": "WEEKEROO", "DEPOSIT_COMMODITIES": "Copper, Rare Earths", "SIZE_TYPE_VALUE": "Low Significance"}, "geometry": {"type": "Point", "coordinates": [140.044726, -32.233213]}}, {"id": "35", "type": "Feature", "properties": {"OBJECTID": 37, "DEPOSIT_NAME": "PARATOO", "DEPOSIT_COMMODITIES": "Copper, Rare Earths", "SIZE_TYPE_VALUE": "Locally Significant"}, "geometry": {"type": "Point", "coordinates": [139.330167, -32.679718]}}, {"id": "36", "type": "Feature", "properties": {"OBJECTID": 38, "DEPOSIT_NAME": "CUMBERLAND", "DEPOSIT_COMMODITIES": "Rare Earths", "SIZE_TYPE_VALUE": "Low Significance"}, "geometry": {"type": "Point", "coordinates": [138.71406, -33.093964]}}, {"id": "37", "type": "Feature", "properties": {"OBJECTID": 39, "DEPOSIT_NAME": "BRONZE WHALER", "DEPOSIT_COMMODITIES": "Kaolinite, Rare Earths", "SIZE_TYPE_VALUE": ""}, "geometry": {"type": "Point", "coordinates": [134.695226, -32.911332]}}, {"id": "38", "type": "Feature", "properties": {"OBJECTID": 40, "DEPOSIT_NAME": "CLARKE", "DEPOSIT_COMMODITIES": "Gold, Rare Earths", "SIZE_TYPE_VALUE": ""}, "geometry": {"type": "Point", "coordinates": [135.502801, -32.852709]}}, {"id": "39", "type": "Feature", "properties": {"OBJECTID": 41, "DEPOSIT_NAME": "CLARKE", "DEPOSIT_COMMODITIES": "Gold, Rare Earths", "SIZE_TYPE_VALUE": ""}, "geometry": {"type": "Point", "coordinates": [135.502801, -32.852709]}}, {"id": "40", "type": "Feature", "properties": {"OBJECTID": 42, "DEPOSIT_NAME": "CLARKE", "DEPOSIT_COMMODITIES": "Gold, Rare Earths", "SIZE_TYPE_VALUE": ""}, "geometry": {"type": "Point", "coordinates": [135.502801, -32.852709]}}, {"id": "41", "type": "Feature", "properties": {"OBJECTID": 43, "DEPOSIT_NAME": "CLARKE", "DEPOSIT_COMMODITIES": "Gold, Rare Earths", "SIZE_TYPE_VALUE": ""}, "geometry": {"type": "Point", "coordinates": [135.502801, -32.852709]}}, {"id": "42", "type": "Feature", "properties": {"OBJECTID": 44, "DEPOSIT_NAME": "CLARKE", "DEPOSIT_COMMODITIES": "Gold, Rare Earths", "SIZE_TYPE_VALUE": ""}, "geometry": {"type": "Point", "coordinates": [135.502801, -32.852709]}}, {"id": "43", "type": "Feature", "properties": {"OBJECTID": 45, "DEPOSIT_NAME": "CLARKE", "DEPOSIT_COMMODITIES": "Gold, Rare Earths", "SIZE_TYPE_VALUE": ""}, "geometry": {"type": "Point", "coordinates": [135.502801, -32.852709]}}, {"id": "44", "type": "Feature", "properties": {"OBJECTID": 46, "DEPOSIT_NAME": "BAGGY GREEN", "DEPOSIT_COMMODITIES": "Gold, Rare Earths", "SIZE_TYPE_VALUE": "Locally Significant"}, "geometry": {"type": "Point", "coordinates": [135.501468, -32.869237]}}, {"id": "45", "type": "Feature", "properties": {"OBJECTID": 47, "DEPOSIT_NAME": "BAGGY GREEN", "DEPOSIT_COMMODITIES": "Gold, Rare Earths", "SIZE_TYPE_VALUE": "Locally Significant"}, "geometry": {"type": "Point", "coordinates": [135.501468, -32.869237]}}, {"id": "46", "type": "Feature", "properties": {"OBJECTID": 48, "DEPOSIT_NAME": "BAGGY GREEN", "DEPOSIT_COMMODITIES": "Gold, Rare Earths", "SIZE_TYPE_VALUE": "Locally Significant"}, "geometry": {"type": "Point", "coordinates": [135.501468, -32.869237]}}, {"id": "47", "type": "Feature", "properties": {"OBJECTID": 49, "DEPOSIT_NAME": "BAGGY GREEN", "DEPOSIT_COMMODITIES": "Gold, Rare Earths", "SIZE_TYPE_VALUE": "Locally Significant"}, "geometry": {"type": "Point", "coordinates": [135.501468, -32.869237]}}, {"id": "48", "type": "Feature", "properties": {"OBJECTID": 50, "DEPOSIT_NAME": "BAGGY GREEN", "DEPOSIT_COMMODITIES": "Gold, Rare Earths", "SIZE_TYPE_VALUE": "Locally Significant"}, "geometry": {"type": "Point", "coordinates": [135.501468, -32.869237]}}, {"id": "49", "type": "Feature", "properties": {"OBJECTID": 51, "DEPOSIT_NAME": "BAGGY GREEN", "DEPOSIT_COMMODITIES": "Gold, Rare Earths", "SIZE_TYPE_VALUE": "Locally Significant"}, "geometry": {"type": "Point", "coordinates": [135.501468, -32.869237]}}, {"id": "50", "type": "Feature", "properties": {"OBJECTID": 52, "DEPOSIT_NAME": "KETCHOWLA K3", "DEPOSIT_COMMODITIES": "Rare Earths, Cobalt, Manganese", "SIZE_TYPE_VALUE": "Low Significance"}, "geometry": {"type": "Point", "coordinates": [139.215033, -33.291045]}}, {"id": "51", "type": "Feature", "properties": {"OBJECTID": 53, "DEPOSIT_NAME": "HICKS", "DEPOSIT_COMMODITIES": "Iron Ore, Iron, Phosphate, Rare Earths", "SIZE_TYPE_VALUE": "Locally Significant"}, "geometry": {"type": "Point", "coordinates": [138.387521, -33.223446]}}, {"id": "52", "type": "Feature", "properties": {"OBJECTID": 54, "DEPOSIT_NAME": "MORRISON", "DEPOSIT_COMMODITIES": "Manganese, Cobalt, Rare Earths", "SIZE_TYPE_VALUE": "Low Significance"}, "geometry": {"type": "Point", "coordinates": [139.282097, -33.407326]}}, {"id": "53", "type": "Feature", "properties": {"OBJECTID": 55, "DEPOSIT_NAME": "PINDARI", "DEPOSIT_COMMODITIES": "Nickel, Chromium, Rare Earths", "SIZE_TYPE_VALUE": "Low Significance"}, "geometry": {"type": "Point", "coordinates": [136.380863, -33.409146]}}, {"id": "54", "type": "Feature", "properties": {"OBJECTID": 56, "DEPOSIT_NAME": "KETCHOWLA HILL", "DEPOSIT_COMMODITIES": "Manganese, Cobalt, Rare Earths", "SIZE_TYPE_VALUE": "Low Significance"}, "geometry": {"type": "Point", "coordinates": [139.195488, -33.30727]}}, {"id": "55", "type": "Feature", "properties": {"OBJECTID": 57, "DEPOSIT_NAME": "KETCHOWLA K2", "DEPOSIT_COMMODITIES": "Manganese, Cobalt, Rare Earths", "SIZE_TYPE_VALUE": "Low Significance"}, "geometry": {"type": "Point", "coordinates": [139.270071, -33.309796]}}, {"id": "56", "type": "Feature", "properties": {"OBJECTID": 58, "DEPOSIT_NAME": "CARALUE BLUFF", "DEPOSIT_COMMODITIES": "Kaolin, Rare Earths", "SIZE_TYPE_VALUE": "Low Significance"}, "geometry": {"type": "Point", "coordinates": [136.09912, -33.324025]}}, {"id": "57", "type": "Feature", "properties": {"OBJECTID": 59, "DEPOSIT_NAME": "POONA", "DEPOSIT_COMMODITIES": "Copper, Gold, Rare Earths, Rhyolite", "SIZE_TYPE_VALUE": "Locally Significant"}, "geometry": {"type": "Point", "coordinates": [137.616495, -34.040115]}}, {"id": "58", "type": "Feature", "properties": {"OBJECTID": 60, "DEPOSIT_NAME": "FLORC 4", "DEPOSIT_COMMODITIES": "Rare Earths, Zinc", "SIZE_TYPE_VALUE": "Low Significance"}, "geometry": {"type": "Point", "coordinates": [139.539711, -33.701966]}}, {"id": "59", "type": "Feature", "properties": {"OBJECTID": 61, "DEPOSIT_NAME": "PORT PIRIE REE", "DEPOSIT_COMMODITIES": "Rare Earths, Rutile", "SIZE_TYPE_VALUE": "Low Significance"}, "geometry": {"type": "Point", "coordinates": [138.00284, -33.16568]}}, {"id": "60", "type": "Feature", "properties": {"OBJECTID": 62, "DEPOSIT_NAME": "MALACHE", "DEPOSIT_COMMODITIES": "Lead, Silver, Rare Earths, Zinc", "SIZE_TYPE_VALUE": "Low Significance"}, "geometry": {"type": "Point", "coordinates": [135.513927, -33.782855]}}, {"id": "61", "type": "Feature", "properties": {"OBJECTID": 63, "DEPOSIT_NAME": "ALFORD EAST", "DEPOSIT_COMMODITIES": "Copper, Gold, Rare Earths", "SIZE_TYPE_VALUE": "Low Significance"}, "geometry": {"type": "Point", "coordinates": [137.856105, -33.827042]}}, {"id": "62", "type": "Feature", "properties": {"OBJECTID": 64, "DEPOSIT_NAME": "TEA TREE GLEN", "DEPOSIT_COMMODITIES": "Copper, Rare Earths", "SIZE_TYPE_VALUE": "Low Significance"}, "geometry": {"type": "Point", "coordinates": [137.545908, -34.212494]}}, {"id": "63", "type": "Feature", "properties": {"OBJECTID": 65, "DEPOSIT_NAME": "KAPUNDA", "DEPOSIT_COMMODITIES": "Copper, Rare Earths", "SIZE_TYPE_VALUE": "Significant to SA"}, "geometry": {"type": "Point", "coordinates": [138.917999, -34.346578]}}, {"id": "64", "type": "Feature", "properties": {"OBJECTID": 66, "DEPOSIT_NAME": "KOPPAMURRA", "DEPOSIT_COMMODITIES": "Rare Earths", "SIZE_TYPE_VALUE": ""}, "geometry": {"type": "Point", "coordinates": [140.924456, -37.199981]}}], "crs": {"type": "name", "properties": {"name": "urn:ogc:def:crs:EPSG::7844"}}}